[
    {"name": "Stockholm", "lat": 59.3293, "lon": 18.0686},
    {"name": "Göteborg", "lat": 57.7089, "lon": 11.9746},
    {"name": "Malmö", "lat": 55.6050, "lon": 13.0038},
    {"name": "Uppsala", "lat": 59.8586, "lon": 17.6389},
    {"name": "Linköping", "lat": 58.4109, "lon": 15.6214},
    {"name": "Västerås", "lat": 59.6111, "lon": 16.5453},
    {"name": "Örebro", "lat": 59.2753, "lon": 15.2134},
    {"name": "Helsingborg", "lat": 56.0467, "lon": 12.6944},
    {"name": "Jönköping", "lat": 57.7815, "lon": 14.1562},
    {"name": "Norrköping", "lat": 58.5942, "lon": 16.1826},
    {"name": "Umeå", "lat": 63.8258, "lon": 20.2630},
    {"name": "Lund", "lat": 55.7047, "lon": 13.1910},
    {"name": "Borås", "lat": 57.7210, "lon": 12.9401},
    {"name": "Huddinge", "lat": 59.2371, "lon": 17.9819},
    {"name": "Nacka", "lat": 59.3105, "lon": 18.1632},
    {"name": "Eskilstuna", "lat": 59.3710, "lon": 16.5098},
    {"name": "Halmstad", "lat": 56.6745, "lon": 12.8568},
    {"name": "Gävle", "lat": 60.6749, "lon": 17.1417},
    {"name": "Södertälje", "lat": 59.1955, "lon": 17.6252},
    {"name": "Haninge", "lat": 59.1678, "lon": 18.1448},
    {"name": "Sundsvall", "lat": 62.3908, "lon": 17.3069},
    {"name": "Växjö", "lat": 56.8790, "lon": 14.8059},
    {"name": "Karlstad", "lat": 59.3793, "lon": 13.5036},
    {"name": "Botkyrka", "lat": 59.2437, "lon": 17.8138},
    {"name": "Kristianstad", "lat": 56.0294, "lon": 14.1567},
    {"name": "Järfälla", "lat": 59.4227, "lon": 17.8350},
    {"name": "Kungsbacka", "lat": 57.4872, "lon": 12.0761},
    {"name": "Solna", "lat": 59.3585, "lon": 18.0149},
    {"name": "Bromma", "lat": 59.3390, "lon": 17.9398},
    {"name": "Luleå", "lat": 65.5848, "lon": 22.1567},
    {"name": "Sollentuna", "lat": 59.4280, "lon": 17.9509},
    {"name": "Täby", "lat": 59.4439, "lon": 18.0687},
    {"name": "Skellefteå", "lat": 64.7507, "lon": 20.9528},
    {"name": "Kalmar", "lat": 56.6634, "lon": 16.3568},
    {"name": "Kungsholmen", "lat": 59.3326, "lon": 18.0337},
    {"name": "Mölndal", "lat": 57.6557, "lon": 12.0138},
    {"name": "Varberg", "lat": 57.1056, "lon": 12.2502},
    {"name": "Karlskrona", "lat": 56.1612, "lon": 15.5869},
    {"name": "Norrtälje", "lat": 59.7580, "lon": 18.7050},
    {"name": "Östersund", "lat": 63.1792, "lon": 14.6357},
    {"name": "Falun", "lat": 60.6036, "lon": 15.6250},
    {"name": "Trollhättan", "lat": 58.2837, "lon": 12.2880},
    {"name": "Nyköping", "lat": 58.7530, "lon": 17.0079},
    {"name": "Skövde", "lat": 58.3912, "lon": 13.8451},
    {"name": "Uddevalla", "lat": 58.3478, "lon": 11.9424},
    {"name": "Sundbyberg", "lat": 59.3613, "lon": 17.9714},
    {"name": "Örnsköldsvik", "lat": 63.2909, "lon": 18.7153},
    {"name": "Sigtuna", "lat": 59.6197, "lon": 17.7236},
    {"name": "Hässleholm", "lat": 56.1591, "lon": 13.7660}
]
